{"features": [{"type": "Feature", "geometry": {"type": "Point", "coordinates": [-8.11, 39.4679]}, "properties": {"name": "Pego Coal Power Plant Portugal", "operator": "PEGOP Energia El\u00e9ctrica, S.A.", "type": "Coal", "id": "43560"}}, {"type": "Feature", "geometry": {"type": "Point", "coordinates": [-58.3392, -34.6254]}, "properties": {"name": "Endesa Costanera Thermal Power Plant", "operator": "Endesa Costenera", "type": "Gas", "id": "42242"}}, {"type": "Feature", "geometry": {"type": "Point", "coordinates": [0.5679, 41.2008]}, "properties": {"name": "Asco Nuclear Power Plant Spain", "operator": "Asociacion Nuclear Asco-Vandellos (ANAV)", "type": "Nuclear", "id": "43399"}}, {"type": "Feature", "geometry": {"type": "Point", "coordinates": [-5.42, 36.1828]}, "properties": {"name": "Los Barrios Coal Power Plant Spain", "operator": "E.ON Espana", "type": "Coal", "id": "43679"}}, {"type": "Feature", "geometry": {"type": "Point", "coordinates": [-0.3376, 41.2977]}, "properties": {"name": "E.ON Escatron CCGT Power Plant Spain", "operator": "E.ON Espana", "type": "Gas", "id": "43897"}}, {"type": "Feature", "geometry": {"type": "Point", "coordinates": [1.1912, 41.1081]}, "properties": {"name": "E.ON Tarragona CCGT Power Plant Spain", "operator": "E.ON Espana", "type": "Gas", "id": "43895"}}, {"type": "Feature", "geometry": {"type": "Point", "coordinates": [-70.1985, -20.8076]}, "properties": {"name": "Tarapaca Power Plant Chile", "operator": "Endesa Chile (Norgener)", "type": "Coal", "id": "44691"}}, {"type": "Feature", "geometry": {"type": "Point", "coordinates": [-5.6986, 39.80705]}, "properties": {"name": "Almaraz Nuclear Power Plant Spain", "operator": "Centrales Nucleares Almaraz-Trillo (CNAT)", "type": "Nuclear", "id": "43398"}}, {"type": "Feature", "geometry": {"type": "Point", "coordinates": [-5.6985998153687, 39.807052507789]}, "properties": {"name": "Almaraz Nuclear Power Plant Spain", "operator": "CENTRALES NUCLEARES ALMARAZ-TRILLO(ID/UFG/ENDESA/HC/NUCLENOR)", "type": "Nuclear", "id": "2069"}}, {"type": "Feature", "geometry": {"type": "Point", "coordinates": [-5.4131, 36.1955]}, "properties": {"name": "San Roque-2 (Endesa) CCGT Power Plant Spain", "operator": "Endesa Generacion SA", "type": "Gas", "id": "43843"}}, {"type": "Feature", "geometry": {"type": "Point", "coordinates": [-5.4131, 36.1955]}, "properties": {"name": "San Roque CCGT Power Plant Spain", "operator": "Alstom O&M", "type": "Gas", "id": "43760"}}, {"type": "Feature", "geometry": {"type": "Point", "coordinates": [-71.2535, -28.47]}, "properties": {"name": "Huasco TG Power Plant Chile", "operator": "Endesa Chile", "type": "Gas", "id": "44686"}}, {"type": "Feature", "geometry": {"type": "Point", "coordinates": [2.6895, 39.5672]}, "properties": {"name": "Cas Tresorer CCGT Power Plant Spain", "operator": "Gesa-Endesa", "type": "Gas", "id": "43816"}}, {"type": "Feature", "geometry": {"type": "Point", "coordinates": [2.2294, 41.41958]}, "properties": {"name": "Besos-5 CCGT Power Plant Spain", "operator": "Endesa", "type": "Gas", "id": "43818"}}, {"type": "Feature", "geometry": {"type": "Point", "coordinates": [-16.4939, 28.0863]}, "properties": {"name": "Granadilla CCGT Power Plant Spain", "operator": "Endesa Generacion SA", "type": "Gas", "id": "43815"}}, {"type": "Feature", "geometry": {"type": "Point", "coordinates": [-1.9054, 36.9783]}, "properties": {"name": "Litoral de Almeira (Carboneras) Coal Power Plant Spain", "operator": "Endesa", "type": "Coal", "id": "43821"}}, {"type": "Feature", "geometry": {"type": "Point", "coordinates": [2.2286, 41.4181]}, "properties": {"name": "Besos-3 (Sant Adria)  CCGT Power Plant Spain", "operator": "Endesa", "type": "Gas", "id": "43842"}}, {"type": "Feature", "geometry": {"type": "Point", "coordinates": [-0.3376, 41.2977]}, "properties": {"name": "E.ON Escatron CCGT Power Plant Spain", "operator": "", "type": "Gas", "id": "43766"}}, {"type": "Feature", "geometry": {"type": "Point", "coordinates": [-58.3419, -34.6529]}, "properties": {"name": "Dock Sud CCGT Power Plant Argentina", "operator": "Central Dock Sud SA (Alstom O and M)", "type": "Gas", "id": "42219"}}, {"type": "Feature", "geometry": {"type": "Point", "coordinates": [-7.8621, 43.4451]}, "properties": {"name": "As Pontes (Puentes Garcia Rodrigues) CCGT Power Plant Spain", "operator": "Endesa Generacion SA", "type": "Gas", "id": "43869"}}, {"type": "Feature", "geometry": {"type": "Point", "coordinates": [2.2286, 41.4185]}, "properties": {"name": "Besos-3 (Sant Adria)  CCGT Power Plant Spain", "operator": "Endesa and GasNatural", "type": "Gas", "id": "43772"}}, {"type": "Feature", "geometry": {"type": "Point", "coordinates": [-0.3806, 40.9972]}, "properties": {"name": "Teruel-Andorra Coal Power Plant Spain", "operator": "Endesa", "type": "Coal", "id": "43865"}}, {"type": "Feature", "geometry": {"type": "Point", "coordinates": [-38.8658, -3.6815]}, "properties": {"name": "Termo Fortaleza CCGT Power Plant Brazil", "operator": "Central Geradora Termelectrica Fortaleza, S.A. (CGTF)", "type": "Gas", "id": "44345"}}, {"type": "Feature", "geometry": {"type": "Point", "coordinates": [1.1912, 41.1081]}, "properties": {"name": "E.ON Tarragona CCGT Power Plant Spain", "operator": "", "type": "Gas", "id": "43762"}}, {"type": "Feature", "geometry": {"type": "Point", "coordinates": [14.2281, 41.0092]}, "properties": {"name": "FWI Teverola CCGT Power Plant Italy", "operator": "Centro Energia Teverola Spa", "type": "Gas", "id": "43989"}}, {"type": "Feature", "geometry": {"type": "Point", "coordinates": [-6.5647, 42.6125]}, "properties": {"name": "Compostilla II Coal Power Plant Spain", "operator": "Endesa Generation Spain", "type": "Coal", "id": "43678"}}, {"type": "Feature", "geometry": {"type": "Point", "coordinates": [2.2286, 41.4181]}, "properties": {"name": "Besos-3 (Sant Adria)  CCGT Power Plant Spain", "operator": "Endesa", "type": "Gas", "id": "43840"}}, {"type": "Feature", "geometry": {"type": "Point", "coordinates": [-71.315, -32.936]}, "properties": {"name": "San Isidro CCGT Power Plant Chile", "operator": "Endesa Chile", "type": "Gas", "id": "44604"}}, {"type": "Feature", "geometry": {"type": "Point", "coordinates": [-3.2072, 42.775]}, "properties": {"name": "Santa Maria de Garona Nuclear Power Plant Spain", "operator": "Nucleares del Norte (NUCLENOR) S.A.", "type": "Nuclear", "id": "43401"}}, {"type": "Feature", "geometry": {"type": "Point", "coordinates": [-7.8621, 43.4451]}, "properties": {"name": "Puentes CCGT Power Plant Spain", "operator": "Endesa Generacion SA", "type": "Gas", "id": "43803"}}, {"type": "Feature", "geometry": {"type": "Point", "coordinates": [-5.4131, 36.1955]}, "properties": {"name": "San Roque CCGT Power Plant Spain", "operator": "Alstom O&M", "type": "Gas", "id": "43759"}}, {"type": "Feature", "geometry": {"type": "Point", "coordinates": [-1.9054, 36.9783]}, "properties": {"name": "Litoral de Almeira (Carboneras) Coal Power Plant Spain", "operator": "Endesa", "type": "Coal", "id": "43862"}}, {"type": "Feature", "geometry": {"type": "Point", "coordinates": [-38.8658, -3.6815]}, "properties": {"name": "Termo Fortaleza CCGT Power Plant Brazil", "operator": "Central Geradora Termelectrica Fortaleza, S.A. (CGTF)", "type": "Gas", "id": "44344"}}, {"type": "Feature", "geometry": {"type": "Point", "coordinates": [-8.1115, 39.4688]}, "properties": {"name": "ElecGas Pego CCGT Power Plant Portugal", "operator": "ElecGas S.A.", "type": "Gas", "id": "43564"}}, {"type": "Feature", "geometry": {"type": "Point", "coordinates": [-6.5332, 42.8385]}, "properties": {"name": "Anllares Coal Power Plant Spain", "operator": "Termicas de Anllares", "type": "Coal", "id": "43677"}}, {"type": "Feature", "geometry": {"type": "Point", "coordinates": [0.56794166564941, 41.200840776182]}, "properties": {"name": "Asco Nuclear Power Plant Spain", "operator": "ASOCIACION NUCLEAR ASCO-VANDELLOS A.I.E. (ENDESA/ID)", "type": "Nuclear", "id": "2175"}}, {"type": "Feature", "geometry": {"type": "Point", "coordinates": [0.8656, 40.9508]}, "properties": {"name": "Vandellos Nuclear Power Plant Spain", "operator": "ANAV (Asociacion Nuclear Asco-Vandellos)", "type": "Nuclear", "id": "43402"}}, {"type": "Feature", "geometry": {"type": "Point", "coordinates": [2.6811, 39.6484]}, "properties": {"name": "Son Reus CCGT Power Plant Spain", "operator": "Gesa-Endesa", "type": "Gas", "id": "43817"}}, {"type": "Feature", "geometry": {"type": "Point", "coordinates": [-70.417, -23.0912]}, "properties": {"name": "Atacama CCGT Power Plant Chile", "operator": "GasAtacama Generacion SA", "type": "Gas", "id": "44594"}}, {"type": "Feature", "geometry": {"type": "Point", "coordinates": [-38.8658, -3.6815]}, "properties": {"name": "Termo Fortaleza CCGT Power Plant Brazil", "operator": "Central Geradora Termelectrica Fortaleza, S.A. (CGTF)", "type": "Gas", "id": "44350"}}, {"type": "Feature", "geometry": {"type": "Point", "coordinates": [-4.1214, 38.6478]}, "properties": {"name": "Puertollano IGCC Power Plant Spain", "operator": "Elcogas SA", "type": "Gas", "id": "43867"}}, {"type": "Feature", "geometry": {"type": "Point", "coordinates": [-70.4103, -23.0892]}, "properties": {"name": "Mejillones CCGT Power Plant Chile", "operator": "Gas Atacama Generacion SA", "type": "Gas", "id": "45175"}}, {"type": "Feature", "geometry": {"type": "Point", "coordinates": [-70.417, -23.0912]}, "properties": {"name": "Atacama CCGT Power Plant", "operator": "GasAtacama Generacion SA", "type": "Gas", "id": "44593"}}, {"type": "Feature", "geometry": {"type": "Point", "coordinates": [2.2286, 41.4185]}, "properties": {"name": "Sant Adria (Besos) CCGT Power Plant Spain", "operator": "Endesa and GasNatural", "type": "Gas", "id": "43770"}}, {"type": "Feature", "geometry": {"type": "Point", "coordinates": [-7.8619, 43.4407]}, "properties": {"name": "As Pontes Coal Power Plant Spain", "operator": "Endesa Generation Spain", "type": "Coal", "id": "43868"}}, {"type": "Feature", "geometry": {"type": "Point", "coordinates": [-7.8619, 43.4407]}, "properties": {"name": "As Pontes Coal Power Plant Spain", "operator": "Endesa Generation Spain", "type": "Coal", "id": "43758"}}, {"type": "Feature", "geometry": {"type": "Point", "coordinates": [-15.4387, 27.8045]}, "properties": {"name": "Barranco de Tirajana CCGT Power Plant Spain", "operator": "Endesa", "type": "Gas", "id": "43804"}}, {"type": "Feature", "geometry": {"type": "Point", "coordinates": [-70.466, -24.988]}, "properties": {"name": "Taltal OCGT Power Plant Chile", "operator": "Endesa Chile", "type": "Gas", "id": "44612"}}, {"type": "Feature", "geometry": {"type": "Point", "coordinates": [-5.9868, 35.589]}, "properties": {"name": "Tahaddart CCGT Power Plant Morocco", "operator": "Siemens", "type": "Gas", "id": "41605"}}, {"type": "Feature", "geometry": {"type": "Point", "coordinates": [-73.1663, -37.0218]}, "properties": {"name": "Bocamina Coal Power Plant Chile", "operator": "Endesa Chile", "type": "Coal", "id": "44605"}}, {"type": "Feature", "geometry": {"type": "Point", "coordinates": [11.587, 44.8606]}, "properties": {"name": "FWI Ferrara CCGT Power Plant Italy", "operator": "Centro Energia Ferrara Spa", "type": "Gas", "id": "43988"}}, {"type": "Feature", "geometry": {"type": "Point", "coordinates": [-58.3371, -34.6256]}, "properties": {"name": "Endesa Costanera CCGT Power Plant Argentina", "operator": "Endesa Costenera", "type": "Gas", "id": "42243"}}, {"type": "Feature", "geometry": {"type": "Point", "coordinates": [-6.943, 37.2156]}, "properties": {"name": "Cristobal Colon CCGT Power Plant Spain", "operator": "Endesa Generacion SA", "type": "Gas", "id": "43889"}}, {"type": "Feature", "geometry": {"type": "Point", "coordinates": [2.2294, 41.41958]}, "properties": {"name": "Besos-5 CCGT Power Plant Spain", "operator": "Endesa", "type": "Gas", "id": "43892"}}, {"type": "Feature", "geometry": {"type": "Point", "coordinates": [-6.943, 37.2156]}, "properties": {"name": "Cristobal Colon CCGT Power Plant Spain", "operator": "Endesa Generacion SA", "type": "Gas", "id": "43797"}}, {"type": "Feature", "geometry": {"type": "Point", "coordinates": [-38.8658, -3.6815]}, "properties": {"name": "Termo Fortaleza CCGT Power Plant Brazil", "operator": "Central Geradora Termelectrica Fortaleza, S.A. (CGTF)", "type": "Gas", "id": "43325"}}, {"type": "Feature", "geometry": {"type": "Point", "coordinates": [-73.9166, 4.9666]}, "properties": {"name": "Zipa Coal Power Plant Colombia", "operator": "Endesa Chile", "type": "Coal", "id": "43461"}}, {"type": "Feature", "geometry": {"type": "Point", "coordinates": [-4.1214, 38.6478]}, "properties": {"name": "Puertollano IGCC Power Plant Spain", "operator": "Elcogas SA", "type": "Gas", "id": "43786"}}, {"type": "Feature", "geometry": {"type": "Point", "coordinates": [-58.33862, -34.625]}, "properties": {"name": "Endesa Costanera CBA CCGT Power Plant Argentina", "operator": "Endesa Costenera", "type": "Gas", "id": "42244"}}, {"type": "Feature", "geometry": {"type": "Point", "coordinates": [-0.3806, 40.9972]}, "properties": {"name": "Teruel-Andorra Coal Power Plant Spain", "operator": "Endesa", "type": "Coal", "id": "43820"}}, {"type": "Feature", "geometry": {"type": "Point", "coordinates": [-71.4858, -32.7875]}, "properties": {"name": "Quintero OCGT Power Plant Chile", "operator": "Endesa Chile S.A.", "type": "Gas", "id": "44596"}}, {"type": "Feature", "geometry": {"type": "Point", "coordinates": [-6.5647, 42.6125]}, "properties": {"name": "Compostilla II Coal Power Plant Spain", "operator": "Endesa Generation Spain", "type": "Coal", "id": "43864"}}, {"type": "Feature", "geometry": {"type": "Point", "coordinates": [-38.8658, -3.6815]}, "properties": {"name": "Termo Fortaleza CCGT Power Plant Brazil", "operator": "Central Geradora Termelectrica Fortaleza, S.A. (CGTF)", "type": "Gas", "id": "44349"}}, {"type": "Feature", "geometry": {"type": "Point", "coordinates": [-5.42, 36.1828]}, "properties": {"name": "Los Barrios Coal Power Plant Spain", "operator": "E.ON Espana", "type": "Coal", "id": "43863"}}, {"type": "Feature", "geometry": {"type": "Point", "coordinates": [-77.0119, -12.0401]}, "properties": {"name": "Santa Rosa 5-8 Power Plant Peru", "operator": "Edegel SA", "type": "Gas", "id": "44544"}}, {"type": "Feature", "geometry": {"type": "Point", "coordinates": [-38.8658, -3.6815]}, "properties": {"name": "Termo Fortaleza CCGT Power Plant Brazil", "operator": "Central Geradora Termelectrica Fortaleza, S.A. (CGTF)", "type": "Gas", "id": "44348"}}, {"type": "Feature", "geometry": {"type": "Point", "coordinates": [-6.5332, 42.8385]}, "properties": {"name": "Anllares Coal Power Plant Spain", "operator": "Termicas de Anllares", "type": "Coal", "id": "43860"}}, {"type": "Feature", "geometry": {"type": "Point", "coordinates": [-38.8658, -3.6815]}, "properties": {"name": "Termo Fortaleza CCGT Power Plant Brazil", "operator": "Central Geradora Termelectrica Fortaleza, S.A. (CGTF)", "type": "Gas", "id": "44347"}}, {"type": "Feature", "geometry": {"type": "Point", "coordinates": [-38.8658, -3.6815]}, "properties": {"name": "Termo Fortaleza CCGT Power Plant Brazil", "operator": "Central Geradora Termelectrica Fortaleza, S.A. (CGTF)", "type": "Gas", "id": "44346"}}], "type": "FeatureCollection"}